[
  {
    "naam": "Basisschool A",
    "adres": "Voorbeeldstraat 10",
    "postcode": "1000 AB",
    "plaats": "Utrecht",
    "gemeente": "Utrecht",
    "provincie": "Utrecht",
    "deelname_2022_2023": "JA",
    "deelname_2023_2024": "JA",
    "deelname_2024_2025": "JA",
    "aangemeld_2025_2026": "JA",
    "aantal_kinderen_2024_2025": 50,
    "lat": 53.20711368759541,
    "lon": 5.653996774797364
  },
  {
    "naam": "Basisschool B",
    "adres": "Voorbeeldstraat 11",
    "postcode": "1001 AB",
    "plaats": "Groningen",
    "gemeente": "Groningen",
    "provincie": "Groningen",
    "deelname_2022_2023": "NEE",
    "deelname_2023_2024": "NEE",
    "deelname_2024_2025": "NEE",
    "aangemeld_2025_2026": "NEE",
    "aantal_kinderen_2024_2025": 20,
    "lat": 52.46682572257598,
    "lon": 4.728644573148976
  },
  {
    "naam": "Basisschool C",
    "adres": "Voorbeeldstraat 12",
    "postcode": "1002 AB",
    "plaats": "Amsterdam",
    "gemeente": "Amsterdam",
    "provincie": "Noord-Holland",
    "deelname_2022_2023": "JA",
    "deelname_2023_2024": "NEE",
    "deelname_2024_2025": "NEE",
    "aangemeld_2025_2026": "NEE",
    "aantal_kinderen_2024_2025": 50,
    "lat": 52.02541600420887,
    "lon": 5.262544891766062
  },
  {
    "naam": "Basisschool D",
    "adres": "Voorbeeldstraat 13",
    "postcode": "1003 AB",
    "plaats": "Amsterdam",
    "gemeente": "Amsterdam",
    "provincie": "Noord-Holland",
    "deelname_2022_2023": "NEE",
    "deelname_2023_2024": "JA",
    "deelname_2024_2025": "NEE",
    "aangemeld_2025_2026": "NEE",
    "aantal_kinderen_2024_2025": 68,
    "lat": 52.28385765301177,
    "lon": 5.673796027712223
  },
  {
    "naam": "Basisschool E",
    "adres": "Voorbeeldstraat 14",
    "postcode": "1004 AB",
    "plaats": "Amsterdam",
    "gemeente": "Amsterdam",
    "provincie": "Noord-Holland",
    "deelname_2022_2023": "JA",
    "deelname_2023_2024": "NEE",
    "deelname_2024_2025": "JA",
    "aangemeld_2025_2026": "NEE",
    "aantal_kinderen_2024_2025": 68,
    "lat": 52.234127590218996,
    "lon": 5.176688816002044
  },
  {
    "naam": "Basisschool F",
    "adres": "Voorbeeldstraat 15",
    "postcode": "1005 AB",
    "plaats": "Utrecht",
    "gemeente": "Utrecht",
    "provincie": "Utrecht",
    "deelname_2022_2023": "NEE",
    "deelname_2023_2024": "NEE",
    "deelname_2024_2025": "NEE",
    "aangemeld_2025_2026": "JA",
    "aantal_kinderen_2024_2025": 68,
    "lat": 53.31533938077202,
    "lon": 5.58621284034273
  },
  {
    "naam": "Basisschool G",
    "adres": "Voorbeeldstraat 16",
    "postcode": "1006 AB",
    "plaats": "Utrecht",
    "gemeente": "Utrecht",
    "provincie": "Utrecht",
    "deelname_2022_2023": "JA",
    "deelname_2023_2024": "JA",
    "deelname_2024_2025": "NEE",
    "aangemeld_2025_2026": "NEE",
    "aantal_kinderen_2024_2025": 20,
    "lat": 53.051246575972485,
    "lon": 5.5348975393331035
  },
  {
    "naam": "Basisschool H",
    "adres": "Voorbeeldstraat 17",
    "postcode": "1007 AB",
    "plaats": "Groningen",
    "gemeente": "Groningen",
    "provincie": "Groningen",
    "deelname_2022_2023": "NEE",
    "deelname_2023_2024": "NEE",
    "deelname_2024_2025": "NEE",
    "aangemeld_2025_2026": "NEE",
    "aantal_kinderen_2024_2025": 35,
    "lat": 52.80066240766145,
    "lon": 5.876907328347166
  },
  {
    "naam": "Basisschool I",
    "adres": "Voorbeeldstraat 18",
    "postcode": "1008 AB",
    "plaats": "Rotterdam",
    "gemeente": "Rotterdam",
    "provincie": "Zuid-Holland",
    "deelname_2022_2023": "JA",
    "deelname_2023_2024": "NEE",
    "deelname_2024_2025": "JA",
    "aangemeld_2025_2026": "NEE",
    "aantal_kinderen_2024_2025": 68,
    "lat": 53.055251702911995,
    "lon": 5.218335270499012
  },
  {
    "naam": "Basisschool J",
    "adres": "Voorbeeldstraat 19",
    "postcode": "1009 AB",
    "plaats": "Utrecht",
    "gemeente": "Utrecht",
    "provincie": "Utrecht",
    "deelname_2022_2023": "NEE",
    "deelname_2023_2024": "JA",
    "deelname_2024_2025": "NEE",
    "aangemeld_2025_2026": "NEE",
    "aantal_kinderen_2024_2025": 35,
    "lat": 52.18078191777973,
    "lon": 5.189201563821447
  },
  {
    "naam": "Basisschool K",
    "adres": "Voorbeeldstraat 20",
    "postcode": "1010 AB",
    "plaats": "Eindhoven",
    "gemeente": "Eindhoven",
    "provincie": "Noord-Brabant",
    "deelname_2022_2023": "JA",
    "deelname_2023_2024": "NEE",
    "deelname_2024_2025": "NEE",
    "aangemeld_2025_2026": "JA",
    "aantal_kinderen_2024_2025": 20,
    "lat": 52.896898315280836,
    "lon": 5.974193413335487
  },
  {
    "naam": "Basisschool L",
    "adres": "Voorbeeldstraat 21",
    "postcode": "1011 AB",
    "plaats": "Utrecht",
    "gemeente": "Utrecht",
    "provincie": "Utrecht",
    "deelname_2022_2023": "NEE",
    "deelname_2023_2024": "NEE",
    "deelname_2024_2025": "NEE",
    "aangemeld_2025_2026": "NEE",
    "aantal_kinderen_2024_2025": 20,
    "lat": 53.19197958319484,
    "lon": 5.113467959451331
  }
]